{"meta": {"generated": "2026-07-24", "center": {"lat": 45.5159, "lon": -122.6822, "address": "Downtown Portland, OR"}, "source": "OpenStreetMap (ODbL)", "radius_km": 5, "total_stations": 27}, "stations_nearby": [{"id": "ea805-sw-broadway", "name": "Tesla Supercharger", "operator": "Tesla", "address": "805 SW Broadway, Portland, OR 97205", "lat": 45.51844, "lon": -122.68045, "connectors": [{"type": "nacs", "count": 4, "power_kw": 250}], "power": "250 kW DC Fast", "access": "customers", "hours": "24/7", "distance_m": 317, "network": "Supercharger"}, {"id": "multi-protocol-downtown", "name": "Multi-Protocol Station", "operator": "Unknown", "address": "Downtown Portland, OR", "lat": 45.5161, "lon": -122.6739, "connectors": [{"type": "j1772"}, {"type": "ccs"}, {"type": "chademo"}], "power": "DC Fast+", "access": "public", "hours": "Unknown", "distance_m": 644}, {"id": "blink-sw-4th", "name": "Blink", "operator": "Blink", "address": "Downtown Portland, OR", "lat": 45.5187, "lon": -122.6762, "connectors": [{"type": "j1772", "power_kw": 7.2}], "power": "7.2 kW Level 2", "access": "public", "hours": "Unknown", "distance_m": 565}, {"id": "blink-sw-madison", "name": "Blink", "operator": "Blink", "address": "Downtown Portland, OR", "lat": 45.5154, "lon": -122.6742, "connectors": [{"type": "j1772"}], "power": "Level 2", "access": "public", "hours": "Unknown", "distance_m": 624}, {"id": "blink-sw-6th", "name": "Blink", "operator": "Blink", "address": "Downtown Portland, OR", "lat": 45.5161, "lon": -122.6739, "connectors": [{"type": "j1772"}], "power": "Level 2", "access": "public", "hours": "Unknown", "distance_m": 735}, {"id": "chargepoint-downtown", "name": "ChargePoint", "operator": "ChargePoint", "address": "Downtown Portland, OR", "lat": 45.5113, "lon": -122.6763, "connectors": [{"type": "j1772"}], "power": "Level 2", "access": "public", "hours": "Unknown", "distance_m": 682}, {"id": "blink-se-powell", "name": "Blink", "operator": "Blink", "address": "SE Powell Blvd, Portland, OR", "lat": 45.4969, "lon": -122.6351, "connectors": [{"type": "j1772", "power_kw": 60}], "power": "Level 2", "access": "public", "hours": "Unknown", "distance_m": 1600, "note": "Currently inaccessible due to outdoor seating"}, {"id": "evgo-nw-raleigh", "name": "EVgo", "operator": "EVgo", "address": "2170 NW Raleigh St, Portland, OR", "lat": 45.5339, "lon": -122.6955, "connectors": [{"type": "chademo"}, {"type": "type1_combo"}], "power": "480V DC Fast", "access": "public", "hours": "24/7", "distance_m": 2253}, {"id": "electrify-america-hawthorne", "name": "Electrify America", "operator": "Electrify America", "address": "3805 SE Hawthorne Blvd, Portland, OR 97214", "lat": 45.5135, "lon": -122.6241, "connectors": [{"type": "chademo"}, {"type": "type1_combo", "count": 4}], "power": "150/50 kW DC Fast", "access": "public", "hours": "24/7", "distance_m": 4533}, {"id": "tesla-ne-weidler", "name": "Tesla Supercharger", "operator": "Tesla", "address": "3030 NE Weidler St, Portland, OR 97232", "lat": 45.5337, "lon": -122.636, "connectors": [{"type": "nacs", "count": 12, "power_kw": 250}], "power": "250 kW DC Fast", "access": "public", "hours": "24/7", "distance_m": 4106}, {"id": "tesla-sw-beaverton-hillsdale", "name": "Tesla Supercharger", "operator": "Tesla", "address": "4439 SW Beaverton Hillsdale Hwy, Portland, OR 97221", "lat": 45.486, "lon": -122.7224, "connectors": [{"type": "nacs", "count": 8, "power_kw": 325}], "power": "325 kW DC Fast", "access": "public", "hours": "24/7", "distance_m": 4564}]}